[{"city":"天津","district":"东丽区","latitude":39.0893346,"longitude":117.3204118,"money":150000,"name":"(检修-电网14-16)国网天津检修公司张贵庄2245充电保护更换","no":"15030113504Q","type":1,"voltageLevel":0,"warehouseNo":"BAAA"},{"city":"天津","district":"东丽区","latitude":39.17927359,"longitude":117.3837362,"money":162540000,"name":"(经研-电网14-02)范庄村（堤头）220千伏输变电工程","no":"15033414000T","type":1,"voltageLevel":220,"warehouseNo":"BAAA"},{"city":"天津","district":"东丽区","latitude":39.02691337,"longitude":117.302927,"money":62930000,"name":"(经研-电网14-08)后三合110千伏输变电工程","no":"16033414000P","type":1,"voltageLevel":110,"warehouseNo":"BAAA"},{"city":"天津","district":"东丽区","latitude":39.2632038,"longitude":117.3614084,"money":36930000,"name":"(经研-电网14-16)津保铁路西堤头110千伏牵引站电源线工程","no":"16033414000S","type":1,"voltageLevel":110,"warehouseNo":"BAAA"},{"city":"天津","district":"东丽区","latitude":39.14079821,"longitude":117.3051288,"money":13700000,"name":"(城东-电网14-18)城东公司程林庄变电站改造","no":"1703021350BA","type":1,"voltageLevel":35,"warehouseNo":"BAAA"},{"city":"天津","district":"东丽区","latitude":39.06591637,"longitude":117.2988795,"money":4490000,"name":"(城南-电网14-03)双林35千伏变电站扩建工程","no":"17030314001N","type":1,"voltageLevel":35,"warehouseNo":"BAAA"},{"city":"天津","district":"东丽区","latitude":39.17927359,"longitude":117.3837362,"money":35440000,"name":"(东丽-电网14-07)范庄村220千伏变电站35千伏出线","no":"17030614000M","type":1,"voltageLevel":35,"warehouseNo":"BAAA"},{"city":"天津","district":"东丽区","latitude":39.10488506,"longitude":117.2280629,"money":7700000,"name":"(检修-电网14-02)国网天津检修公司利民道站保护及监控系统更换","no":"18030114001L","type":1,"voltageLevel":0,"warehouseNo":"BAAA"},{"city":"天津","district":"东丽区","latitude":39.08659067,"longitude":117.1973881,"money":9900000,"name":"(检修-电网14-15)国网天津检修公司滨海500kV变电站监控系统改造项目","no":"18030114001Z","type":1,"voltageLevel":0,"warehouseNo":"BAAA"},{"city":"天津","district":"东丽区","latitude":39.16587295,"longitude":117.2689912,"money":6680000,"name":"(城东-电网14-30)满江道110千伏变电站10千伏新出线工程","no":"18030211002L","type":1,"voltageLevel":10,"warehouseNo":"BAAA"},{"city":"天津","district":"东丽区","latitude":39.13775899,"longitude":117.2866833,"money":8030000,"name":"(城东-电网14-26)城东公司远翠西里及高峰路等地区0.4kVA型低压开关箱迁","no":"18030213504Q","type":1,"voltageLevel":0,"warehouseNo":"BAAA"},{"city":"天津","district":"东丽区","latitude":39.11238338,"longitude":117.2634025,"money":2200000,"name":"(城东-电网14-20)河东城建指挥部河东区中山门西里4号转供电项目","no":"1803021350BQ","type":1,"voltageLevel":10,"warehouseNo":"BAAA"},{"city":"天津","district":"东丽区","latitude":39.1113137,"longitude":117.2663556,"money":2200000,"name":"(城东-电网14-21)河东城建指挥部河东区互助南里18号楼转供电项目","no":"1803021350BR","type":1,"voltageLevel":10,"warehouseNo":"BAAA"},{"city":"天津","district":"东丽区","latitude":39.04927752,"longitude":117.3077452,"money":2810000,"name":"(城南-电网14-04)玫瑰庄园转供电改造","no":"1803031350CW","type":1,"voltageLevel":10,"warehouseNo":"BAAA"},{"city":"天津","district":"东丽区","latitude":39.07148243,"longitude":117.2223701,"money":4000000,"name":"(城南-电网14-06)龙水园转供电项目","no":"1803031350D2","type":1,"voltageLevel":10,"warehouseNo":"BAAA"},{"city":"天津","district":"东丽区","latitude":39.05938963,"longitude":117.1656831,"money":940000,"name":"(城西-电网14-08)王台村转供电改造","no":"1803041350DY","type":1,"voltageLevel":10,"warehouseNo":"BAAA"},{"city":"天津","district":"东丽区","latitude":39.09035015,"longitude":117.1656165,"money":700000,"name":"(城西-电网14-09)天津疗养院经济适用房（464医院家属楼）转供电改造","no":"1803041350F5","type":1,"voltageLevel":10,"warehouseNo":"BAAA"},{"city":"天津","district":"东丽区","latitude":39.01660559,"longitude":117.2189529,"money":16000000,"name":"(城西-电网14-10)泉集里转供电改造","no":"1803041350F6","type":1,"voltageLevel":10,"warehouseNo":"BAAA"},{"city":"天津","district":"东丽区","latitude":39.07968418,"longitude":117.3953201,"money":3030000,"name":"(东丽-电网14-13)中河变电站中27、中28切带丽兴51、62线路负荷","no":"18030613508H","type":1,"voltageLevel":10,"warehouseNo":"BAAA"},{"city":"天津","district":"东丽区","latitude":39.16107484,"longitude":117.4182838,"money":8960000,"name":"(东丽-电网14-17)新贯庄变电站10kV新出线切带715、华33线路负荷","no":"18030613508M","type":1,"voltageLevel":10,"warehouseNo":"BAAA"},{"city":"天津","district":"东丽区","latitude":39.11224565,"longitude":117.4432504,"money":4000000,"name":"(东丽-电网14-16)袁家河变电站新出线切带物22、物47线路负荷","no":"18030613508U","type":1,"voltageLevel":10,"warehouseNo":"BAAA"},{"city":"天津","district":"东丽区","latitude":39.11065917,"longitude":117.394056,"money":3250000,"name":"(东丽-电网14-10)国网天津东丽供电公司幺六桥110kV站综自改造","no":"1803061350AN","type":1,"voltageLevel":0,"warehouseNo":"BAAA"},{"city":"天津","district":"东丽区","latitude":39.2066392,"longitude":117.2743089,"money":470000,"name":"(东丽-电网14-09)东丽区新村北里转供电改造","no":"1803061350AS","type":1,"voltageLevel":10,"warehouseNo":"BAAA"},{"city":"天津","district":"东丽区","latitude":38.81435961,"longitude":117.2509086,"money":1300000,"name":"(滨海-电网14-22)杨柳庄站杨23线路增加联络工程","no":"18031013512P","type":1,"voltageLevel":10,"warehouseNo":"BAAA"},{"city":"天津","district":"东丽区","latitude":38.63937141,"longitude":117.094651,"money":1250000,"name":"(蓟县-电网14-23)罗庄子35千伏变电站10千伏新出线工程","no":"18031113507F","type":1,"voltageLevel":10,"warehouseNo":"BAAA"},{"city":"天津","district":"东丽区","latitude":38.94111397,"longitude":117.3690283,"money":3620000,"name":"(通信-电网14-05)津港公路光缆管道建设工程（一期）","no":"18031614000J","type":1,"voltageLevel":0,"warehouseNo":"BAAA"},{"city":"天津","district":"东丽区","latitude":39.148921,"longitude":117.2519671,"money":400000,"name":"(检修-技2014-10)检修公司卫国道220kV变电站安防系统标准化改造","no":"2103011350FR","type":1,"voltageLevel":220,"warehouseNo":"BAAA"},{"city":"天津","district":"东丽区","latitude":39.08659067,"longitude":117.1973881,"money":15830000,"name":"(检修-技2014-08)检修公司滨海站500kV设备改造","no":"2103011350G6","type":1,"voltageLevel":500,"warehouseNo":"BAAA"},{"city":"天津","district":"东丽区","latitude":39.0893346,"longitude":117.3204118,"money":1300000,"name":"(检修-技2014-25)检修公司张贵庄等220kV变电站蓄电池组、充电设备改造","no":"2103011350GQ","type":1,"voltageLevel":220,"warehouseNo":"BAAA"},{"city":"天津","district":"东丽区","latitude":39.07868577,"longitude":117.2637523,"money":1085000,"name":"(城南-技2014-13)城南公司陈塘庄变电站10kV线路综合改造","no":"2103031350MD","type":1,"voltageLevel":10,"warehouseNo":"BAAA"},{"city":"天津","district":"东丽区","latitude":39.01014996,"longitude":117.1302867,"money":840000,"name":"(城南-技2014-10)城南公司35kV八里台电缆隧道消防系统技术改造","no":"2103031350MJ","type":1,"voltageLevel":35,"warehouseNo":"BAAA"},{"city":"天津","district":"东丽区","latitude":39.079122,"longitude":117.3709784,"money":828000,"name":"(东丽-技2014-06)东丽公司东丽开发区老旧设备度夏环网改造","no":"2103061350HF","type":1,"voltageLevel":10,"warehouseNo":"BAAA"},{"city":"天津","district":"东丽区","latitude":39.20932538,"longitude":117.2876196,"money":443000,"name":"(东丽-技2014-08)东丽公司南何庄等地区0.4kV受总更换","no":"2103061350HJ","type":1,"voltageLevel":0,"warehouseNo":"BAAA"},{"city":"天津","district":"东丽区","latitude":39.11924339,"longitude":117.3240422,"money":1771000,"name":"(东丽-技2014-07)东丽公司跃进东里10kV及以下配网整体改造工程","no":"2103061350HL","type":1,"voltageLevel":10,"warehouseNo":"BAAA"},{"city":"天津","district":"东丽区","latitude":39.08469261,"longitude":117.2104329,"money":1054000,"name":"(滨海-技2014-20)滨海公司胜利村电容器改造","no":"2103101351H2","type":1,"voltageLevel":110,"warehouseNo":"BAAA"},{"city":"天津","district":"东丽区","latitude":39.08659067,"longitude":117.1973881,"money":688000,"name":"(滨海-技2014-10)国网天津滨海供电公司变电站直流系统改造","no":"2103101351H4","type":1,"voltageLevel":35,"warehouseNo":"BAAA"},{"city":"天津","district":"东丽区","latitude":39.08659067,"longitude":117.1973881,"money":305000,"name":"(滨海-技2014-09)国网天津滨海供电公司35kV变电站火灾报警系统技改项目","no":"2103101351H6","type":1,"voltageLevel":35,"warehouseNo":"BAAA"},{"city":"天津","district":"东丽区","latitude":39.08659067,"longitude":117.1973881,"money":144000,"name":"(滨海-技2014-08)国网天津滨海供电公司35kV变电站消防灭火系统购置","no":"2103101351H7","type":1,"voltageLevel":35,"warehouseNo":"BAAA"},{"city":"天津","district":"东丽区","latitude":39.08659067,"longitude":117.1973881,"money":4844000,"name":"(滨海-技2014-19)滨海公司10ｋV配电变压器增容","no":"2103101351HA","type":1,"voltageLevel":10,"warehouseNo":"BAAA"},{"city":"天津","district":"东丽区","latitude":39.08659067,"longitude":117.1973881,"money":180000,"name":"(滨海-技2014-11)滨海公司输电线路防雷改造","no":"2103101351HD","type":1,"voltageLevel":35,"warehouseNo":"BAAA"},{"city":"天津","district":"东丽区","latitude":39.08659067,"longitude":117.1973881,"money":4904000,"name":"(滨海-技2014-18)滨海公司0.4ｋVCF箱改造","no":"2103101351HF","type":1,"voltageLevel":0,"warehouseNo":"BAAA"},{"city":"天津","district":"东丽区","latitude":39.0893346,"longitude":117.3204118,"money":2938000,"name":"(检修-大修14-44)检修公司原张贵庄站220kV1#变压器大修","no":"4103011350GT","type":1,"voltageLevel":0,"warehouseNo":"BAAA"},{"city":"天津","district":"东丽区","latitude":39.07868577,"longitude":117.2637523,"money":219000,"name":"(检修-大修14-51)检修公司陈塘庄变电站变压器35kV受总电缆大修","no":"4103011350JR","type":1,"voltageLevel":0,"warehouseNo":"BAAA"},{"city":"天津","district":"东丽区","latitude":38.9860328,"longitude":117.1548539,"money":450000,"name":"(检修-大修14-81)检修公司青凝侯220KV变电站消防系统大修","no":"4103011350K2","type":1,"voltageLevel":0,"warehouseNo":"BAAA"},{"city":"天津","district":"东丽区","latitude":39.01014996,"longitude":117.1302867,"money":150000,"name":"(检修-大修14-80)检修公司八里台220KV变电站消防控制柜及报警主机大修","no":"4103011350KJ","type":1,"voltageLevel":0,"warehouseNo":"BAAA"},{"city":"天津","district":"东丽区","latitude":39.15612944,"longitude":117.2525838,"money":930000,"name":"(城东-大修14-42)真理道等地区楼内接户线大修","no":"4103021350NK","type":1,"voltageLevel":0,"warehouseNo":"BAAA"},{"city":"天津","district":"东丽区","latitude":39.14778459,"longitude":117.3235469,"money":716000,"name":"(城东-大修14-19)国网天津城东供电公司小王庄35kV变电站开关柜加强绝缘措","no":"4103021350P8","type":1,"voltageLevel":0,"warehouseNo":"BAAA"},{"city":"天津","district":"东丽区","latitude":39.16805196,"longitude":117.2418313,"money":780000,"name":"(城东-大修14-39)革新道等地区楼内接户线大修","no":"4103021350PQ","type":1,"voltageLevel":0,"warehouseNo":"BAAA"},{"city":"天津","district":"东丽区","latitude":39.11755133,"longitude":117.2005507,"money":560000,"name":"(城南-大修14-14)城南公司云南路35kV变电站开关柜完善化大修","no":"4103031350L4","type":1,"voltageLevel":0,"warehouseNo":"BAAA"},{"city":"天津","district":"东丽区","latitude":39.12661268,"longitude":117.2213836,"money":480000,"name":"(城南-大修14-26)城南公司大沽路等地区35kV电缆工井防水大修","no":"4103031350L9","type":1,"voltageLevel":0,"warehouseNo":"BAAA"},{"city":"天津","district":"东丽区","latitude":39.3703616,"longitude":117.5108453,"money":490000,"name":"(城南-大修14-07)城南公司35kV纪庄子等变电站消防系统大修","no":"4103031350LS","type":1,"voltageLevel":0,"warehouseNo":"BAAA"},{"city":"天津","district":"东丽区","latitude":39.3703616,"longitude":117.5108453,"money":120000,"name":"(城南-大修14-21)城南公司35kV纪庄子等4座变电站微机五防装置大修","no":"4103031350M0","type":1,"voltageLevel":0,"warehouseNo":"BAAA"},{"city":"天津","district":"东丽区","latitude":39.00191602,"longitude":117.4054784,"money":640000,"name":"(城南-大修14-15)城南公司110kV上刘庄等变电站消防系统大修","no":"4103031350M3","type":1,"voltageLevel":0,"warehouseNo":"BAAA"},{"city":"天津","district":"东丽区","latitude":38.97172399,"longitude":117.2195274,"money":400000,"name":"(检修-大修14-105)城西公司青泊洼35kV变电站变压器大修","no":"4103041350PG","type":1,"voltageLevel":0,"warehouseNo":"BAAA"},{"city":"天津","district":"东丽区","latitude":39.03506461,"longitude":117.1262013,"money":350000,"name":"(城西-大修14-08)城西公司西青地区35kV电缆终端解剖大修","no":"4103041350PU","type":1,"voltageLevel":0,"warehouseNo":"BAAA"},{"city":"天津","district":"东丽区","latitude":39.14843016,"longitude":117.3938907,"money":830000,"name":"(东丽-大修14-11)东丽公司保税路35kV变电站35kV开关柜加强绝缘措施大","no":"4103061350G4","type":1,"voltageLevel":0,"warehouseNo":"BAAA"},{"city":"天津","district":"东丽区","latitude":39.17809901,"longitude":117.3944362,"money":650000,"name":"(东丽-大修14-10)东丽公司华明35kV变电站35kV开关柜加强绝缘措施大修","no":"4103061350G5","type":1,"voltageLevel":0,"warehouseNo":"BAAA"},{"city":"天津","district":"东丽区","latitude":39.07968418,"longitude":117.3953201,"money":1050000,"name":"(东丽-大修14-31)东丽公司中河110kV变电站35kV开关柜加强绝缘措施大","no":"4103061350G8","type":1,"voltageLevel":0,"warehouseNo":"BAAA"},{"city":"天津","district":"东丽区","latitude":39.11224565,"longitude":117.4432504,"money":890000,"name":"(东丽-大修14-27)东丽公司袁家河110kV变电站35kV开关柜加强绝缘措施","no":"4103061350GA","type":1,"voltageLevel":0,"warehouseNo":"BAAA"},{"city":"天津","district":"塘沽区","latitude":38.96857017,"longitude":117.5426405,"money":314230000,"name":"(经研-电网14-05)新华路220kV输变电工程","no":"15033413504N","type":1,"voltageLevel":220,"warehouseNo":"BGCA"},{"city":"天津","district":"塘沽区","latitude":38.98981284,"longitude":117.5786871,"money":62160000,"name":"(蓟县-电网14-01)新城110千伏输变电工程","no":"160311135074","type":1,"voltageLevel":110,"warehouseNo":"BGCA"},{"city":"天津","district":"塘沽区","latitude":38.99176021,"longitude":117.5176905,"money":54040000,"name":"(经研-电网14-12)东官房110千伏输变电工程","no":"16033414000X","type":1,"voltageLevel":110,"warehouseNo":"BGCA"},{"city":"天津","district":"塘沽区","latitude":38.63554196,"longitude":117.3907883,"money":1800000,"name":"(检修-电网14-06)国网天津检修公司港西等故障录波器更换","no":"18030114001Q","type":1,"voltageLevel":0,"warehouseNo":"BGCA"},{"city":"天津","district":"塘沽区","latitude":39.05884332,"longitude":117.4670244,"money":3040000,"name":"(东丽-电网14-12)东堼变电站新出线2回切带军粮城123、124线路负荷","no":"18030613508G","type":1,"voltageLevel":10,"warehouseNo":"BGCA"},{"city":"天津","district":"塘沽区","latitude":39.44376931,"longitude":117.3950136,"money":1840000,"name":"(滨海-电网14-31)付庄配电线路增加联络工程","no":"180310135071","type":1,"voltageLevel":10,"warehouseNo":"BGCA"},{"city":"天津","district":"塘沽区","latitude":39.09662536,"longitude":117.5481279,"money":1140000,"name":"(滨海-电网14-27)国网天津滨海供电公司新民路等变电站遥视系统建设","no":"180310135174","type":1,"voltageLevel":0,"warehouseNo":"BGCA"},{"city":"天津","district":"塘沽区","latitude":38.81435961,"longitude":117.2509086,"money":390000,"name":"(滨海-电网14-28)国网天津滨海供电公司杨柳庄110kV变电站主变保护改造","no":"180310135175","type":1,"voltageLevel":110,"warehouseNo":"BGCA"},{"city":"天津","district":"塘沽区","latitude":38.58943043,"longitude":117.3540721,"money":480000,"name":"(滨海-电网14-26)国网天津滨海供电公司窦庄子等站综合业务网建设","no":"180310135177","type":1,"voltageLevel":0,"warehouseNo":"BGCA"},{"city":"天津","district":"塘沽区","latitude":38.98981284,"longitude":117.5786871,"money":2880000,"name":"(蓟县-电网14-27)110千伏新城3#变电站10千伏新出线供电工程","no":"18031113507S","type":1,"voltageLevel":10,"warehouseNo":"BGCA"},{"city":"天津","district":"塘沽区","latitude":39.03748425,"longitude":117.5864236,"money":3840000,"name":"(通信-电网14-06)津塘公路通信光缆管道建设工程","no":"18031614000K","type":1,"voltageLevel":0,"warehouseNo":"BGCA"},{"city":"天津","district":"塘沽区","latitude":38.99464224,"longitude":117.5161543,"money":2823000,"name":"(检修-技2014-07)检修公司葛沽变电站220kV互感器改造","no":"2103011350GA","type":1,"voltageLevel":220,"warehouseNo":"BGCA"},{"city":"天津","district":"塘沽区","latitude":38.95713116,"longitude":117.4096775,"money":250000,"name":"(城南-技2014-14)城南公司110kV北闸口变电站直流系统改造","no":"2103031350MT","type":1,"voltageLevel":110,"warehouseNo":"BGCA"},{"city":"天津","district":"塘沽区","latitude":39.00793614,"longitude":117.6490814,"money":4858000,"name":"(滨海-技2014-16)国网天津滨海供电公司塘沽110kV变电站组合电器改造","no":"2103101351GX","type":1,"voltageLevel":110,"warehouseNo":"BGCA"},{"city":"天津","district":"塘沽区","latitude":39.09662536,"longitude":117.5481279,"money":150000,"name":"(滨海-技2014-21)国网天津滨海供电公司新民路110kV变电站消防报警系统","no":"2103101351GY","type":1,"voltageLevel":110,"warehouseNo":"BGCA"},{"city":"天津","district":"塘沽区","latitude":39.24777318,"longitude":117.8735301,"money":160000,"name":"(滨海-技2014-22)国网天津滨海供电公司汉沽物资仓库消防系统改造","no":"2103101351KT","type":1,"voltageLevel":0,"warehouseNo":"BGCA"},{"city":"天津","district":"塘沽区","latitude":38.84563729,"longitude":117.4908926,"money":1408000,"name":"(检修-大修14-74)检修公司上古林等220kV变电站容性设备带电检测装置大修","no":"4103011350K1","type":1,"voltageLevel":0,"warehouseNo":"BGCA"},{"city":"天津","district":"塘沽区","latitude":39.381561,"longitude":117.689424,"money":819000,"name":"(检修-大修14-100)检修公司宁河等220kV基地站整修","no":"4103011350KR","type":1,"voltageLevel":0,"warehouseNo":"BGCA"},{"city":"天津","district":"塘沽区","latitude":39.0396737,"longitude":117.6523826,"money":940000,"name":"(城东-大修14-40)津塘路等地区楼内接户线大修","no":"4103021350NL","type":1,"voltageLevel":0,"warehouseNo":"BGCA"},{"city":"天津","district":"塘沽区","latitude":38.93533443,"longitude":117.4473675,"money":600000,"name":"(城南-大修14-09)城南公司110kV西花园等7座变电站屋顶防水大修","no":"4103031350L6","type":1,"voltageLevel":0,"warehouseNo":"BGCA"},{"city":"天津","district":"塘沽区","latitude":39.02627536,"longitude":117.6748803,"money":150000,"name":"(城南-大修14-35)城南公司和平路35kV变电站大型风机大修","no":"4103031350LD","type":1,"voltageLevel":0,"warehouseNo":"BGCA"},{"city":"天津","district":"塘沽区","latitude":39.04036959,"longitude":117.4644521,"money":550000,"name":"(东丽-大修14-17)东丽公司魏王庄35kV变电站35kV开关柜加强绝缘措施大","no":"4103061350GY","type":1,"voltageLevel":0,"warehouseNo":"BGCA"},{"city":"天津","district":"塘沽区","latitude":38.99596672,"longitude":117.4839913,"money":480000,"name":"(滨海-大修14-11)滨海公司天津大道等地区工井防水大修","no":"4103101351G0","type":1,"voltageLevel":0,"warehouseNo":"BGCA"},{"city":"天津","district":"蓟县","latitude":39.15369414,"longitude":117.3950136,"money":198120000,"name":"(经研-电网14-15)津保高铁赵家柳220千伏牵引站电源线工程","no":"15033413503Z","type":1,"voltageLevel":220,"warehouseNo":"BHCA"},{"city":"天津","district":"蓟县","latitude":39.68724634,"longitude":117.3778677,"money":80130000,"name":"(经研-电网14-03)石各庄220千伏扩建","no":"150334135041","type":1,"voltageLevel":220,"warehouseNo":"BHCA"},{"city":"天津","district":"蓟县","latitude":39.11068164,"longitude":117.1484244,"money":132540000,"name":"(经研-电网14-10)楚雄道220kV输变电工程","no":"150334135043","type":1,"voltageLevel":220,"warehouseNo":"BHCA"},{"city":"天津","district":"蓟县","latitude":39.41659766,"longitude":116.9299093,"money":90130000,"name":"(经研-电网14-04)高场220千伏变电站扩建工程","no":"15033414000V","type":1,"voltageLevel":220,"warehouseNo":"BHCA"},{"city":"天津","district":"蓟县","latitude":39.23825295,"longitude":117.1025585,"money":52930000,"name":"(城东-电网14-01)王秦庄（新家园）110kV输变电工程","no":"160302140014","type":1,"voltageLevel":110,"warehouseNo":"BHCA"},{"city":"天津","district":"蓟县","latitude":39.16053324,"longitude":117.1597048,"money":1800000,"name":"(城西-电网14-01)杨柳青牵引站电源线调整","no":"16030414000Y","type":1,"voltageLevel":110,"warehouseNo":"BHCA"},{"city":"天津","district":"蓟县","latitude":40.05227136,"longitude":117.3873813,"money":4500000,"name":"(检修-电网14-03)国网天津检修公司吴庄等变电站故障录波器更换","no":"18030114001M","type":1,"voltageLevel":0,"warehouseNo":"BHCA"},{"city":"天津","district":"蓟县","latitude":39.16073858,"longitude":117.2149546,"money":7970000,"name":"(检修-电网14-05)国网天津检修公司昆纬路站保护及监控系统更换","no":"18030114001P","type":1,"voltageLevel":0,"warehouseNo":"BHCA"},{"city":"天津","district":"蓟县","latitude":39.45704258,"longitude":117.0345779,"money":2250000,"name":"(检修-电网14-07)国网天津检修公司武清等故障录波器更换","no":"18030114001R","type":1,"voltageLevel":0,"warehouseNo":"BHCA"},{"city":"天津","district":"蓟县","latitude":40.03266111,"longitude":117.404508,"money":1200000,"name":"(检修-电网14-10)国网天津检修公司蓟县站主变保护改造","no":"18030114001U","type":1,"voltageLevel":0,"warehouseNo":"BHCA"},{"city":"天津","district":"蓟县","latitude":39.72220712,"longitude":117.5855392,"money":7790000,"name":"(检修-电网14-11)国网天津检修公司大沽站保护及监控系统更换","no":"18030114001V","type":1,"voltageLevel":0,"warehouseNo":"BHCA"},{"city":"天津","district":"蓟县","latitude":39.15277009,"longitude":117.162706,"money":7810000,"name":"(检修-电网14-12)国网天津检修公司芥园道站保护及监控系统更换","no":"18030114001W","type":1,"voltageLevel":0,"warehouseNo":"BHCA"},{"city":"天津","district":"蓟县","latitude":39.1439299,"longitude":117.2108131,"money":4770000,"name":"(检修-电网14-17)国网天津检修公司基地站终端改造","no":"180301140020","type":1,"voltageLevel":0,"warehouseNo":"BHCA"},{"city":"天津","district":"蓟县","latitude":39.23567863,"longitude":117.1235191,"money":4980000,"name":"(城东-电网14-29)赵虎庄35千伏变电站10千伏新出线工程","no":"18030213508D","type":1,"voltageLevel":10,"warehouseNo":"BHCA"},{"city":"天津","district":"蓟县","latitude":39.43840404,"longitude":117.462002,"money":2400000,"name":"(城东-电网14-23)国网天津城东供电公司大张庄变电站综自改造","no":"1803021350BB","type":1,"voltageLevel":35,"warehouseNo":"BHCA"},{"city":"天津","district":"蓟县","latitude":39.22272815,"longitude":117.133221,"money":3000000,"name":"(城东-电网14-22)城东通信设备升级改造（刘园等9站）","no":"1803021350CF","type":1,"voltageLevel":0,"warehouseNo":"BHCA"},{"city":"天津","district":"蓟县","latitude":39.43840404,"longitude":117.462002,"money":11600000,"name":"(城东-电网14-16)大张庄示范镇（一期）电力排管工程","no":"18030214000C","type":1,"voltageLevel":10,"warehouseNo":"BHCA"},{"city":"天津","district":"蓟县","latitude":39.12020049,"longitude":117.176231,"money":3300000,"name":"(城西-电网14-11)国网天津城西供电公司西湖村等35kV变电站通信设备改造工","no":"1803041350DW","type":1,"voltageLevel":0,"warehouseNo":"BHCA"},{"city":"天津","district":"蓟县","latitude":39.15119426,"longitude":117.1354116,"money":4100000,"name":"(城西-电网14-12)国网天津城西供电公司冶金里等35kV变电站通信设备改造工","no":"1803041350DX","type":1,"voltageLevel":0,"warehouseNo":"BHCA"},{"city":"天津","district":"蓟县","latitude":39.12820635,"longitude":117.0743745,"money":4960000,"name":"(城西-电网14-18)城西公司中北斜地区低压电缆箱改造","no":"1803041350DZ","type":1,"voltageLevel":10,"warehouseNo":"BHCA"},{"city":"天津","district":"蓟县","latitude":39.20272466,"longitude":117.1515399,"money":2490000,"name":"(城西-电网14-13)国网天津城西供电公司吴嘴变电站综合自动化改造工程","no":"1803041350F2","type":1,"voltageLevel":35,"warehouseNo":"BHCA"},{"city":"天津","district":"蓟县","latitude":39.11246232,"longitude":117.147566,"money":5490000,"name":"(城西-电网14-19)保山道排管预埋工程","no":"1803041350FH","type":1,"voltageLevel":10,"warehouseNo":"BHCA"},{"city":"天津","district":"蓟县","latitude":39.1439299,"longitude":117.2108131,"money":2800000,"name":"(电科-电网14-03)国网天津电科院省级计量中心二期（互感器检测生产楼）通信系","no":"180305140001","type":1,"voltageLevel":0,"warehouseNo":"BHCA"},{"city":"天津","district":"蓟县","latitude":39.87494655,"longitude":117.4384221,"money":930000,"name":"(蓟县-电网14-19)杨津庄35千伏变电站10千伏新出线工程","no":"18031113507C","type":1,"voltageLevel":10,"warehouseNo":"BHCA"},{"city":"天津","district":"蓟县","latitude":39.91689403,"longitude":117.179987,"money":1480000,"name":"(蓟县-电网14-22)桑梓35千伏变电站10千伏新出线工程","no":"18031113507D","type":1,"voltageLevel":10,"warehouseNo":"BHCA"},{"city":"天津","district":"蓟县","latitude":39.91689403,"longitude":117.179987,"money":9680000,"name":"(蓟县-电网14-08)蓟县公司桑梓等5个村低压改造工程","no":"1803111350AQ","type":1,"voltageLevel":0,"warehouseNo":"BHCA"},{"city":"天津","district":"蓟县","latitude":40.12379564,"longitude":117.5246906,"money":8030000,"name":"(蓟县-电网14-09)蓟县公司果香峪等5个村低压改造工程","no":"1803111350AR","type":1,"voltageLevel":0,"warehouseNo":"BHCA"},{"city":"天津","district":"蓟县","latitude":39.7967012,"longitude":117.4161413,"money":6260000,"name":"(蓟县-电网14-11)蓟县公司寇各庄等6个村低压改造工程","no":"1803111350AT","type":1,"voltageLevel":0,"warehouseNo":"BHCA"},{"city":"天津","district":"蓟县","latitude":40.05395085,"longitude":117.6739094,"money":8730000,"name":"(蓟县-电网14-12)蓟县公司陈各庄等5个村低压改造工程","no":"1803111350AU","type":1,"voltageLevel":0,"warehouseNo":"BHCA"},{"city":"天津","district":"蓟县","latitude":39.52870314,"longitude":116.8732183,"money":4500000,"name":"(蓟县-电网14-13)蓟县公司西关等5个村低压改造工程","no":"18031114001V","type":1,"voltageLevel":0,"warehouseNo":"BHCA"},{"city":"天津","district":"蓟县","latitude":40.22845608,"longitude":117.4522233,"money":9160000,"name":"(蓟县-电网14-14)蓟县公司石炮沟等4个村低压改造工程","no":"18031114001W","type":1,"voltageLevel":0,"warehouseNo":"BHCA"},{"city":"天津","district":"蓟县","latitude":40.00688814,"longitude":117.7595598,"money":9160000,"name":"(蓟县-电网14-15)蓟县公司柳官庄等3个村低压改造工程","no":"18031114001X","type":1,"voltageLevel":0,"warehouseNo":"BHCA"},{"city":"天津","district":"蓟县","latitude":40.07839604,"longitude":117.6739094,"money":6470000,"name":"(蓟县-电网14-16)蓟县公司小汪庄等3个村低压改造工程","no":"18031114001Y","type":1,"voltageLevel":0,"warehouseNo":"BHCA"},{"city":"天津","district":"蓟县","latitude":39.92743695,"longitude":117.4685093,"money":5750000,"name":"(蓟县-电网14-18)蓟县公司单桥子等4个村低压改造工程","no":"180311140020","type":1,"voltageLevel":0,"warehouseNo":"BHCA"},{"city":"天津","district":"蓟县","latitude":39.1439299,"longitude":117.2108131,"money":2930000,"name":"(通信-电网14-09)国网客服中心天津基地光传输链路建设","no":"18031614000N","type":1,"voltageLevel":0,"warehouseNo":"BHCA"},{"city":"天津","district":"蓟县","latitude":39.1439299,"longitude":117.2108131,"money":19900000,"name":"(通信-电网14-10)国网天津信通公司调度数据网市调接入网改造","no":"18031614000P","type":1,"voltageLevel":0,"warehouseNo":"BHCA"},{"city":"天津","district":"蓟县","latitude":39.72220712,"longitude":117.5855392,"money":140000,"name":"(检修-技2014-28)检修公司大沽220KV变电站消防水系统改造","no":"2103011350FQ","type":1,"voltageLevel":220,"warehouseNo":"BHCA"},{"city":"天津","district":"蓟县","latitude":39.12744059,"longitude":117.1868065,"money":9450000,"name":"(检修-技2014-18)检修公司海光寺220kV1、3号主变改造","no":"2103011350GJ","type":1,"voltageLevel":220,"warehouseNo":"BHCA"},{"city":"天津","district":"蓟县","latitude":39.12744059,"longitude":117.1868065,"money":130000,"name":"(检修-技2014-14)检修公司海光寺220KV变电站周界报警系统改造","no":"2103011350GM","type":1,"voltageLevel":220,"warehouseNo":"BHCA"},{"city":"天津","district":"蓟县","latitude":40.00961366,"longitude":117.4411592,"money":1550000,"name":"(检修-技2014-26)检修公司蓟县等220kV变电站直流设备整体改造","no":"2103011350GR","type":1,"voltageLevel":220,"warehouseNo":"BHCA"},{"city":"天津","district":"蓟县","latitude":39.43840404,"longitude":117.462002,"money":4512000,"name":"(城东-技2014-13)城东公司大张庄变电站10kV开关柜、断路器、电容器改造","no":"2103021350Q8","type":1,"voltageLevel":35,"warehouseNo":"BHCA"},{"city":"天津","district":"蓟县","latitude":39.20087603,"longitude":117.225467,"money":410000,"name":"(城东-技2014-06)城东公司35kV宜兴埠变电站10kV电容器组改造","no":"2103021350QK","type":1,"voltageLevel":35,"warehouseNo":"BHCA"},{"city":"天津","district":"蓟县","latitude":40.05343392,"longitude":117.3873813,"money":4470000,"name":"(蓟县-技2014-16)蓟县公司官庄及盘山地区0.4kV线路改造","no":"2103111350HA","type":1,"voltageLevel":0,"warehouseNo":"BHCA"},{"city":"天津","district":"蓟县","latitude":40.00961366,"longitude":117.4411592,"money":340000,"name":"(蓟县-技2014-08)蓟县供电分公司城区环网柜改造","no":"2103111350HH","type":1,"voltageLevel":0,"warehouseNo":"BHCA"},{"city":"天津","district":"蓟县","latitude":39.91025714,"longitude":117.4085208,"money":135000,"name":"(蓟县-技2014-09)蓟县公司上仓等站空调设备改造","no":"2103111350HP","type":1,"voltageLevel":0,"warehouseNo":"BHCA"},{"city":"天津","district":"蓟县","latitude":39.50519971,"longitude":117.0923837,"money":1530000,"name":"(蓟县-技2014-17)蓟县公司九百户211出口两公里绝缘化改造工程","no":"2103111350HT","type":1,"voltageLevel":0,"warehouseNo":"BHCA"},{"city":"天津","district":"蓟县","latitude":39.12744059,"longitude":117.1868065,"money":126000,"name":"(检修-大修14-66)检修公司海光寺220KV变电站消防系统大修","no":"4103011350GZ","type":1,"voltageLevel":0,"warehouseNo":"BHCA"},{"city":"天津","district":"蓟县","latitude":39.95322707,"longitude":117.302927,"money":153000,"name":"(检修-大修14-68)检修公司白庙站10kV电容器室温度监测及远控装置大修","no":"4103011350J2","type":1,"voltageLevel":0,"warehouseNo":"BHCA"},{"city":"天津","district":"蓟县","latitude":40.05227136,"longitude":117.3873813,"money":200000,"name":"(检修-大修14-65)检修公司吴庄500KV变电站雨淋阀系统大修","no":"4103011350J3","type":1,"voltageLevel":0,"warehouseNo":"BHCA"},{"city":"天津","district":"蓟县","latitude":39.95322707,"longitude":117.4411592,"money":1640000,"name":"(检修-大修14-42)检修公司白庙站220kV2#变压器大修","no":"4103011350J7","type":1,"voltageLevel":0,"warehouseNo":"BHCA"},{"city":"天津","district":"蓟县","latitude":39.22690911,"longitude":117.2701656,"money":2427000,"name":"(检修-大修14-71)检修公司景顺路等220kV变电站变电设备反污大修","no":"4103011350JB","type":1,"voltageLevel":0,"warehouseNo":"BHCA"},{"city":"天津","district":"蓟县","latitude":39.14225971,"longitude":117.0932804,"money":254000,"name":"(检修-大修14-76)检修公司曹庄子等站110kV及以上避雷器全电流检测仪大修","no":"4103011350JD","type":1,"voltageLevel":0,"warehouseNo":"BHCA"},{"city":"天津","district":"蓟县","latitude":39.95322707,"longitude":117.3714772,"money":1640000,"name":"(检修-大修14-43)检修公司白庙站220kV3#变压器大修","no":"4103011350JK","type":1,"voltageLevel":0,"warehouseNo":"BHCA"},{"city":"天津","district":"蓟县","latitude":39.12744059,"longitude":117.1868065,"money":472000,"name":"(检修-大修14-72)检修公司海光寺等220kV变电站变压器在线油色谱装置大修","no":"4103011350K0","type":1,"voltageLevel":0,"warehouseNo":"BHCA"},{"city":"天津","district":"蓟县","latitude":39.14415131,"longitude":117.1328606,"money":660000,"name":"(检修-大修14-98)检修公司黄河道等220kV变电站楼体沉降治理","no":"4103011350KH","type":1,"voltageLevel":0,"warehouseNo":"BHCA"},{"city":"天津","district":"蓟县","latitude":39.14415131,"longitude":117.1328606,"money":300000,"name":"(检修-大修14-67)检修公司黄河道等220KV变电站脉冲电网大修","no":"4103011350KP","type":1,"voltageLevel":0,"warehouseNo":"BHCA"},{"city":"天津","district":"蓟县","latitude":39.18739593,"longitude":117.1727953,"money":2310000,"name":"(检修-大修14-99)检修公司勤俭道220kV变电基地站综合整修","no":"4103011350KQ","type":1,"voltageLevel":0,"warehouseNo":"BHCA"},{"city":"天津","district":"蓟县","latitude":39.14415131,"longitude":117.1328606,"money":695000,"name":"(检修-大修14-95)检修公司黄河道等220kV变电站电缆夹层防水大修","no":"4103011350KU","type":1,"voltageLevel":0,"warehouseNo":"BHCA"},{"city":"天津","district":"蓟县","latitude":39.22690911,"longitude":117.2701656,"money":2380000,"name":"(检修-大修14-82)检修公司景顺路站220kV隔离开关大修","no":"4103011350KW","type":1,"voltageLevel":0,"warehouseNo":"BHCA"},{"city":"天津","district":"蓟县","latitude":39.20087603,"longitude":117.225467,"money":120000,"name":"(检修-大修14-103)城东公司宜兴埠地区10kV老旧配电变压器大修","no":"4103021350NX","type":1,"voltageLevel":0,"warehouseNo":"BHCA"},{"city":"天津","district":"蓟县","latitude":39.21466073,"longitude":117.2067139,"money":1050000,"name":"(城东-大修14-20)城东公司万新、美树丽舍等地区0.4kV低压电缆大修","no":"4103021350P5","type":1,"voltageLevel":0,"warehouseNo":"BHCA"},{"city":"天津","district":"蓟县","latitude":39.24378217,"longitude":117.1539605,"money":480000,"name":"(城东-大修14-21)城东公司延吉道地区电缆工井防水大修","no":"4103021350Q1","type":1,"voltageLevel":0,"warehouseNo":"BHCA"},{"city":"天津","district":"蓟县","latitude":39.13658734,"longitude":117.2021851,"money":360000,"name":"(城南-大修14-08)城南公司兴安路等地区35kV电缆工井防水大修","no":"4103031350LV","type":1,"voltageLevel":0,"warehouseNo":"BHCA"},{"city":"天津","district":"蓟县","latitude":39.16022208,"longitude":117.1321529,"money":440000,"name":"(城西-大修14-36)城西公司西青道工井防水大修","no":"4103041350P8","type":1,"voltageLevel":0,"warehouseNo":"BHCA"},{"city":"天津","district":"蓟县","latitude":39.15119426,"longitude":117.1354116,"money":250000,"name":"(城西-大修14-19)城西公司35kV冶金里变电站电缆夹层防水大修","no":"4103041350PZ","type":1,"voltageLevel":0,"warehouseNo":"BHCA"},{"city":"天津","district":"蓟县","latitude":40.03555309,"longitude":117.2641734,"money":260000,"name":"(蓟县-大修14-08)蓟县公司许家台变电站消防管道大修","no":"4103111350GC","type":1,"voltageLevel":0,"warehouseNo":"BHCA"},{"city":"天津","district":"武清区","latitude":39.34024096,"longitude":117.0957186,"money":2100000,"name":"(武清-电网14-09)武清下朱庄等站通信设备更新","no":"18032813508L","type":1,"voltageLevel":0,"warehouseNo":"BJCA"},{"city":"天津","district":"武清区","latitude":39.42185349,"longitude":117.1535399,"money":1129000,"name":"(武清-技2014-04)武清公司曹子里110kV变电站10kV电容器改造项目","no":"2103281350FL","type":1,"voltageLevel":110,"warehouseNo":"BJCA"},{"city":"天津","district":"武清区","latitude":38.92389344,"longitude":117.3981709,"money":164000,"name":"(武清-技2014-03)武清公司前进、雍西110kV变电站防误闭锁设备改造项目","no":"2103281350FR","type":1,"voltageLevel":110,"warehouseNo":"BJCA"},{"city":"天津","district":"武清区","latitude":39.41263863,"longitude":117.3950136,"money":660000,"name":"(武清-大修14-07)武清公司青坨110kV变电站35kV开关柜大修项目","no":"4103281350DV","type":1,"voltageLevel":0,"warehouseNo":"BJCA"},{"city":"天津","district":"武清区","latitude":39.25345006,"longitude":117.3950136,"money":334000,"name":"(武清-大修14-10)武清公司汊沽港变电站隔离开关大修","no":"4103281350F7","type":1,"voltageLevel":0,"warehouseNo":"BJCA"},{"city":"天津","district":"宝坻区","latitude":39.34983633,"longitude":117.8238092,"money":22990000,"name":"(宝坻-电网14-15)小辛码35kV变电站重建工程","no":"17033012000J","type":1,"voltageLevel":35,"warehouseNo":"BLCA"},{"city":"天津","district":"宝坻区","latitude":39.615544,"longitude":117.4114206,"money":3090000,"name":"(宝坻-电网14-03)国网天津宝坻供电公司35kV开发区变电站综自改造","no":"17033012001F","type":1,"voltageLevel":35,"warehouseNo":"BLCA"},{"city":"天津","district":"宝坻区","latitude":39.59221886,"longitude":117.2522791,"money":4310000,"name":"(宝坻-电网14-09)大口屯站10千伏新出线工程","no":"18033013503V","type":1,"voltageLevel":10,"warehouseNo":"BLCA"},{"city":"天津","district":"宝坻区","latitude":39.59008083,"longitude":117.2653472,"money":4570000,"name":"(宝坻-电网14-07)宝坻公司0.4kV大薄甸等5个村低压台区规范化改造","no":"18033013505Y","type":1,"voltageLevel":0,"warehouseNo":"BLCA"},{"city":"天津","district":"宝坻区","latitude":39.66868417,"longitude":117.4621054,"money":4760000,"name":"(宝坻-电网14-08)宝坻公司0.4kV谭家庄等4个村低压台区规范化改造","no":"18033013505Z","type":1,"voltageLevel":0,"warehouseNo":"BLCA"},{"city":"天津","district":"宝坻区","latitude":39.76162653,"longitude":117.5465402,"money":2070000,"name":"(宝坻-电网14-14)新安镇站10千伏新出线工程","no":"180330135075","type":1,"voltageLevel":10,"warehouseNo":"BLCA"},{"city":"天津","district":"宝坻区","latitude":39.7973909,"longitude":117.2083926,"money":2550000,"name":"(宝坻-电网14-12)宝坻牛道口35千伏变电站10千伏新出线（一期）工程","no":"180330135076","type":1,"voltageLevel":10,"warehouseNo":"BLCA"},{"city":"天津","district":"宝坻区","latitude":39.94767949,"longitude":117.3714772,"money":970000,"name":"(宝坻-电网14-13)牛道口站10千伏出线工程（二期）","no":"180330135077","type":1,"voltageLevel":10,"warehouseNo":"BLCA"},{"city":"天津","district":"宝坻区","latitude":40.10864339,"longitude":117.6459366,"money":7220000,"name":"(宝坻-电网14-10)史各庄站10千伏新出线工程","no":"18033013507C","type":1,"voltageLevel":10,"warehouseNo":"BLCA"},{"city":"天津","district":"宝坻区","latitude":39.3800821,"longitude":117.3361506,"money":1390000,"name":"(宝坻-电网14-02)宝坻阎皮庄站通信工程","no":"18033013507N","type":1,"voltageLevel":0,"warehouseNo":"BLCA"},{"city":"天津","district":"宝坻区","latitude":39.71271209,"longitude":117.310948,"money":7970000,"name":"(宝坻-电网14-04)宝坻公司10kV新苑小区老旧箱站改造工程","no":"18033013507Q","type":1,"voltageLevel":10,"warehouseNo":"BLCA"},{"city":"天津","district":"宝坻区","latitude":39.64107873,"longitude":117.5216748,"money":7140000,"name":"(宝坻-电网14-05)宝坻公司0.4kV林亭口十村等6个村低压台区规范化改造","no":"18033013507R","type":1,"voltageLevel":0,"warehouseNo":"BLCA"},{"city":"天津","district":"宝坻区","latitude":39.45650443,"longitude":117.3950136,"money":526000,"name":"(宝坻-技2014-13)宝坻公司大白庄地区10kV交叉跨越、对地距离不足改造工","no":"2103301350FC","type":1,"voltageLevel":10,"warehouseNo":"BLCA"},{"city":"天津","district":"宝坻区","latitude":39.69140606,"longitude":117.4506087,"money":3428000,"name":"(宝坻-技2014-15)宝坻公司0.4kV王卜庄等地区、城关镇1街至9街等、挹","no":"2103301350FL","type":1,"voltageLevel":0,"warehouseNo":"BLCA"},{"city":"天津","district":"宝坻区","latitude":39.59221886,"longitude":117.2522791,"money":925000,"name":"(宝坻-技2014-12)宝坻公司大口屯地区10kV交叉跨越、对地距离不足改造工","no":"2103301350FN","type":1,"voltageLevel":10,"warehouseNo":"BLCA"},{"city":"天津","district":"宝坻区","latitude":39.69774052,"longitude":117.5777806,"money":1194000,"name":"(宝坻-技2014-08)宝坻公司大钟庄、大口屯及大白庄地区10kV线路绝缘化改","no":"2103301350FP","type":1,"voltageLevel":10,"warehouseNo":"BLCA"},{"city":"天津","district":"宝坻区","latitude":39.56195787,"longitude":117.5471736,"money":300000,"name":"(宝坻-大修14-10)宝坻公司欢喜庄变电站35kV开关柜加强绝缘大修","no":"4103301350DC","type":1,"voltageLevel":0,"warehouseNo":"BLCA"},{"city":"天津","district":"宁河县","latitude":39.381561,"longitude":117.689424,"money":5180000,"name":"(宁河-电网14-07)宁河阳光农业光伏35千伏并网线路工程","no":"17032914000L","type":1,"voltageLevel":35,"warehouseNo":"BKCA"},{"city":"天津","district":"宁河县","latitude":39.43540315,"longitude":117.8242039,"money":5008000,"name":"(宁河-技2014-11)宁河公司苗庄等地区10kV线路改造","no":"2103291350F4","type":1,"voltageLevel":10,"warehouseNo":"BKCA"},{"city":"天津","district":"宁河县","latitude":39.0893451,"longitude":117.293254,"money":1150000,"name":"(宁河-技2014-08)宁河公司110kV潘庄变电站10kV电容器组改造","no":"2103291350F7","type":1,"voltageLevel":110,"warehouseNo":"BKCA"},{"city":"天津","district":"宁河县","latitude":39.43540315,"longitude":117.8242039,"money":1200000,"name":"(宁河-技2014-12)宁河公司35kV苗庄变电站10kV电容器组改造","no":"2103291350F8","type":1,"voltageLevel":35,"warehouseNo":"BKCA"},{"city":"天津","district":"宁河县","latitude":39.13707169,"longitude":117.2278634,"money":230000,"name":"(宁河-大修14-16)宁河公司35kV九纬路变电站屋顶防水及外墙大修　","no":"4103291350DY","type":1,"voltageLevel":0,"warehouseNo":"BKCA"},{"city":"天津","district":"静海县","latitude":38.80751609,"longitude":117.1305858,"money":82900000,"name":"(静海-电网14-06)官坑110kV输变电工程","no":"16032713500U","type":1,"voltageLevel":110,"warehouseNo":"BICA"},{"city":"天津","district":"静海县","latitude":38.90981353,"longitude":117.1647472,"money":4650000,"name":"(静海-电网14-13)静海公司团泊110kV站10kV配电线路出口两公里绝缘化","no":"180327135071","type":1,"voltageLevel":10,"warehouseNo":"BICA"},{"city":"天津","district":"静海县","latitude":38.79386393,"longitude":117.0903215,"money":90000,"name":"(静海-电网14-14)蔡公庄35千伏站蔡宝216线路与惠丰110千伏站惠四21","no":"1803271350AX","type":1,"voltageLevel":10,"warehouseNo":"BICA"},{"city":"天津","district":"静海县","latitude":38.79386393,"longitude":117.0903215,"money":120000,"name":"(静海-电网14-15)蔡公庄35千伏站蔡工228线路与大屯110千伏站屯砖22","no":"1803271350AY","type":1,"voltageLevel":10,"warehouseNo":"BICA"},{"city":"天津","district":"静海县","latitude":39.92208156,"longitude":117.3076687,"money":550000,"name":"(静海-电网14-16)崔庄子110千伏站崔正231线路与崔坤223线路联络线建","no":"1803271350AZ","type":1,"voltageLevel":10,"warehouseNo":"BICA"},{"city":"天津","district":"静海县","latitude":38.98785886,"longitude":117.302927,"money":1240000,"name":"(静海-电网14-18)府君庙35千伏站君城212线路与城关35千伏站城曹106","no":"1803271350B2","type":1,"voltageLevel":10,"warehouseNo":"BICA"},{"city":"天津","district":"静海县","latitude":38.9413436,"longitude":116.8646195,"money":680000,"name":"(静海-电网14-19)梁头110千伏站梁城222线路与城关35千伏站城梁107","no":"1803271350B3","type":1,"voltageLevel":10,"warehouseNo":"BICA"},{"city":"天津","district":"静海县","latitude":38.87789344,"longitude":116.9204966,"money":1390000,"name":"(静海-电网14-23)双塘35千伏站双贸一211线路与城关35千伏站城东103","no":"1803271350B7","type":1,"voltageLevel":10,"warehouseNo":"BICA"},{"city":"天津","district":"静海县","latitude":38.87789344,"longitude":116.9204966,"money":1210000,"name":"(静海-电网14-24)双塘35千伏站新出双回线路切带陈官屯35千伏站陈袁216","no":"1803271350B8","type":1,"voltageLevel":10,"warehouseNo":"BICA"},{"city":"天津","district":"静海县","latitude":38.90981353,"longitude":117.1647472,"money":1340000,"name":"(静海-电网14-25)团泊110千伏站团正215线路与满井子35千伏站满胜21","no":"1803271350B9","type":1,"voltageLevel":10,"warehouseNo":"BICA"},{"city":"天津","district":"静海县","latitude":38.81681191,"longitude":117.0676255,"money":1950000,"name":"(静海-电网14-26)大屯110千伏站屯尚231线路调整供电半径工程","no":"1803271350BA","type":1,"voltageLevel":10,"warehouseNo":"BICA"},{"city":"天津","district":"静海县","latitude":38.6434466,"longitude":117.1443366,"money":180000,"name":"(静海-电网14-31)中旺35千伏站中蔡211线路与中英220线路联络线建设","no":"1803271350BD","type":1,"voltageLevel":10,"warehouseNo":"BICA"},{"city":"天津","district":"静海县","latitude":38.6434466,"longitude":117.1443366,"money":180000,"name":"(静海-电网14-32)中旺35千伏站中韩214线路与中正217线路联络线建设","no":"1803271350BF","type":1,"voltageLevel":10,"warehouseNo":"BICA"},{"city":"天津","district":"静海县","latitude":38.93899535,"longitude":117.302927,"money":6890000,"name":"(静海-电网14-29)王口35千伏站岳刘224线路与三呼庄35千伏站呼刘218","no":"1803271350BL","type":1,"voltageLevel":10,"warehouseNo":"BICA"},{"city":"天津","district":"静海县","latitude":38.78314514,"longitude":117.0489166,"money":6060000,"name":"(静海-电网14-30)东翟庄35千伏站翟安223线路改为双回线路工程","no":"1803271350BM","type":1,"voltageLevel":10,"warehouseNo":"BICA"},{"city":"天津","district":"静海县","latitude":38.86126214,"longitude":116.9727723,"money":900000,"name":"(静海-电网14-07)静海2014年通信网升级改造工程","no":"1803271350CD","type":1,"voltageLevel":0,"warehouseNo":"BICA"},{"city":"天津","district":"静海县","latitude":38.79386393,"longitude":117.0903215,"money":3730000,"name":"(静海-电网14-10)静海公司蔡公庄35kV站10kV配电线路出口两公里绝缘化","no":"1803271350CM","type":1,"voltageLevel":10,"warehouseNo":"BICA"},{"city":"天津","district":"静海县","latitude":38.98785886,"longitude":117.302927,"money":2310000,"name":"(静海-电网14-08)国网天津静海供电公司府君庙35kV站综合自动化改造工程","no":"180327140011","type":1,"voltageLevel":0,"warehouseNo":"BICA"},{"city":"天津","district":"静海县","latitude":38.81415825,"longitude":117.302927,"money":4811000,"name":"(静海-技2014-09)静海公司流庄村等8个低压台区综合改造工程","no":"2103271350KR","type":1,"voltageLevel":0,"warehouseNo":"BICA"},{"city":"天津","district":"静海县","latitude":38.83960597,"longitude":117.0694397,"money":5532000,"name":"(静海-技2014-10)静海公司大邱庄镇安康里台区低压规范化改造","no":"2103271350KX","type":1,"voltageLevel":0,"warehouseNo":"BICA"},{"city":"天津","district":"静海县","latitude":39.02779697,"longitude":117.3950136,"money":901000,"name":"(静海-大修14-11)静海公司独流镇公用台区低压线路大修工程","no":"4103271350K1","type":1,"voltageLevel":0,"warehouseNo":"BICA"},{"city":"天津","district":"静海县","latitude":38.88632646,"longitude":116.7896051,"money":410000,"name":"(静海-大修14-17)静海公司三呼庄3个35kV站消防系统大修","no":"4103271350K3","type":1,"voltageLevel":0,"warehouseNo":"BICA"},{"city":"天津","district":"静海县","latitude":38.83960597,"longitude":117.0694397,"money":400000,"name":"(静海-大修14-19)静海公司大邱庄等4个老变电站消防水系统大修","no":"4103271350K4","type":1,"voltageLevel":0,"warehouseNo":"BICA"},{"city":"天津","district":"静海县","latitude":38.78314514,"longitude":117.0489166,"money":299000,"name":"(静海-大修14-05)静海公司东翟庄村接户线大修工程","no":"4103271350KF","type":1,"voltageLevel":0,"warehouseNo":"BICA"},{"city":"天津","district":"静海县","latitude":39.42088207,"longitude":117.0755189,"money":589000,"name":"(静海-大修14-14)静海公司陈官屯地区低压台区接户线大修","no":"4103271350KM","type":1,"voltageLevel":0,"warehouseNo":"BICA"},{"city":"天津","currentmoney":17042842,"district":"河东区","initmoney":0,"latitude":39.76134018185129,"longitude":117.45770580770237,"name":"输电物理杆：1 ","no":"03M02000000000193","type":2,"voltageLevel":220,"warehouseNo":"BAAA"},{"city":"天津","currentmoney":17042842,"district":"河东区","initmoney":0,"latitude":38.86261,"longitude":117.2895233,"name":"输电物理杆：1 ","no":"03M02000000000193","type":2,"voltageLevel":220,"warehouseNo":"BAAA"},{"city":"天津","currentmoney":706944,"district":"西青区","initmoney":0,"latitude":39.94283215125131,"longitude":117.5665574399724,"name":"(滨海-电网09-44)110kV临港线路改造","no":"03M02000000000198","type":2,"voltageLevel":35,"warehouseNo":"BAAA"},{"city":"天津","currentmoney":706944,"district":"西青区","initmoney":0,"latitude":39.0505868,"longitude":117.25109,"name":"配电物理杆：双4100009","no":"03M02100000000073","type":2,"voltageLevel":35,"warehouseNo":"BAAA"},{"city":"天津","currentmoney":0,"district":"大港区","initmoney":0,"latitude":39.07835,"longitude":117.2463315,"name":"变电站：洞庭路开闭站DS35-24","no":"03M02000000000786","type":2,"voltageLevel":35,"warehouseNo":"BGCA"},{"city":"天津","currentmoney":808648,"district":"宁河县","initmoney":0,"latitude":39.56305375,"longitude":118.0425017,"name":"equipment0","no":"03M02000000000228","type":2,"voltageLevel":110,"warehouseNo":"BKCA"},{"city":"天津","currentmoney":171806,"district":"宁河县","initmoney":0,"latitude":39.4684223,"longitude":117.9478702,"name":"equipment0","no":"03M02000000000631","type":2,"voltageLevel":35,"warehouseNo":"BKCA"},{"city":"天津","currentmoney":1275474,"district":"宁河县","initmoney":0,"latitude":40.30185536,"longitude":118.7813033,"name":"equipment2","no":"03M02000000001549","type":2,"voltageLevel":110,"warehouseNo":"BKCA"},{"city":"天津","currentmoney":862627,"district":"宁河县","initmoney":0,"latitude":39.75291501,"longitude":118.2323629,"name":"equipment1","no":"03M03054440000000","type":2,"voltageLevel":10,"warehouseNo":"BKCA"},{"city":"天津","currentmoney":1752877,"district":"宁河县","initmoney":0,"latitude":39.50791407,"longitude":117.987362,"name":"equipment1","no":"03M03054870000000","type":2,"voltageLevel":10,"warehouseNo":"BKCA"},{"city":"天津","currentmoney":524153,"district":"宁河县","initmoney":0,"latitude":39.92973045,"longitude":118.4091784,"name":"equipment3","no":"03M03053410000000","type":2,"voltageLevel":10,"warehouseNo":"BKCA"},{"city":"天津","currentmoney":926332,"district":"宁河县","initmoney":0,"latitude":39.77381515,"longitude":118.2532631,"name":"equipment3","no":"03M03054530000000","type":2,"voltageLevel":10,"warehouseNo":"BKCA"},{"city":"天津","currentmoney":754410,"district":"宁河县","initmoney":0,"latitude":39.7287895,"longitude":118.2082374,"name":"equipment3","no":"03M03054550000000","type":2,"voltageLevel":10,"warehouseNo":"BKCA"},{"city":"天津","currentmoney":283777,"district":"宁河县","initmoney":0,"latitude":39.97140717,"longitude":118.4508551,"name":"equipment5","no":"03M03054190000000","type":2,"voltageLevel":10,"warehouseNo":"BKCA"},{"city":"天津","currentmoney":8134536,"district":"宁河县","initmoney":0,"latitude":40.31957248,"longitude":118.7990204,"name":"equipment9","no":"03M02000000001306","type":2,"voltageLevel":110,"warehouseNo":"BKCA"},{"city":"天津","currentmoney":536415,"district":"宁河县","initmoney":0,"latitude":40.332546,"longitude":118.8119939,"name":"equipment10","no":"03M30000000070677","type":2,"voltageLevel":10,"warehouseNo":"BKCA"},{"city":"天津","currentmoney":939,"district":"宁河县","initmoney":0,"latitude":39.35291766,"longitude":117.8323656,"name":"equipment0","no":"03M30000000070714","type":2,"voltageLevel":10,"warehouseNo":"BKCA"},{"city":"天津","currentmoney":1533781,"district":"宁河县","initmoney":0,"latitude":39.41585543,"longitude":117.8953033,"name":"equipment1","no":"03M40000003701272","type":2,"voltageLevel":10,"warehouseNo":"BKCA"},{"city":"天津","currentmoney":539301,"district":"宁河县","initmoney":0,"latitude":39.66942927,"longitude":118.1488772,"name":"equipment4","no":"03M02000000000384","type":2,"voltageLevel":35,"warehouseNo":"BKCA"},{"city":"天津","currentmoney":2074266,"district":"宁河县","initmoney":0,"latitude":39.74848515,"longitude":118.2279331,"name":"equipment6","no":"03M02000000000853","type":2,"voltageLevel":35,"warehouseNo":"BKCA"},{"city":"天津","currentmoney":168774,"district":"宁河县","initmoney":0,"latitude":39.38304309,"longitude":117.862491,"name":"equipment0","no":"03M03053400000000","type":2,"voltageLevel":10,"warehouseNo":"BKCA"},{"city":"天津","currentmoney":730485,"district":"宁河县","initmoney":0,"latitude":40.31866508,"longitude":118.798113,"name":"equipment15","no":"03M03364210000000","type":2,"voltageLevel":10,"warehouseNo":"BKCA"},{"city":"天津","currentmoney":0,"district":"宁河县","initmoney":0,"latitude":40.09310126,"longitude":118.5725492,"name":"equipment13","no":"03M03020071300000","type":2,"voltageLevel":10,"warehouseNo":"BKCA"},{"city":"天津","currentmoney":1343286,"district":"宁河县","initmoney":0,"latitude":39.98206764,"longitude":118.4615156,"name":"equipment13","no":"03M30000000070681","type":2,"voltageLevel":10,"warehouseNo":"BKCA"},{"city":"天津","currentmoney":736100,"district":"宁河县","initmoney":0,"latitude":40.07419668,"longitude":118.5536446,"name":"equipment15","no":"03M02000000000568","type":2,"voltageLevel":35,"warehouseNo":"BKCA"},{"city":"天津","currentmoney":774150,"district":"宁河县","initmoney":0,"latitude":40.07368557,"longitude":118.5531335,"name":"equipment16","no":"03M03055130000000","type":2,"voltageLevel":10,"warehouseNo":"BKCA"},{"city":"天津","currentmoney":195425,"district":"宁河县","initmoney":0,"latitude":39.79474294,"longitude":118.2741909,"name":"equipment10","no":"03M30000000193099","type":2,"voltageLevel":10,"warehouseNo":"BKCA"},{"city":"天津","currentmoney":2339724,"district":"宁河县","initmoney":0,"latitude":39.40156311,"longitude":117.881011,"name":"equipment1","no":"03M02000000000637","type":2,"voltageLevel":35,"warehouseNo":"BKCA"},{"city":"天津","currentmoney":53590,"district":"宁河县","initmoney":0,"latitude":40.27249184,"longitude":118.7519398,"name":"equipment23","no":"03M02000000000158","type":2,"voltageLevel":220,"warehouseNo":"BKCA"},{"city":"天津","currentmoney":642278,"district":"宁河县","initmoney":0,"latitude":39.80667496,"longitude":118.2861229,"name":"equipment12","no":"03M30000000070717","type":2,"voltageLevel":10,"warehouseNo":"BKCA"},{"city":"天津","currentmoney":1588447,"district":"宁河县","initmoney":0,"latitude":39.8648044,"longitude":118.3442523,"name":"equipment14","no":"03M03027130000000","type":2,"voltageLevel":10,"warehouseNo":"BKCA"},{"city":"天津","currentmoney":1019742,"district":"宁河县","initmoney":0,"latitude":39.55290222,"longitude":118.0323501,"name":"equipment6","no":"03M02000000001177","type":2,"voltageLevel":35,"warehouseNo":"BKCA"},{"city":"天津","currentmoney":737320,"district":"宁河县","initmoney":0,"latitude":39.81900302,"longitude":118.2984509,"name":"equipment14","no":"03M03352860000000","type":2,"voltageLevel":10,"warehouseNo":"BKCA"},{"city":"天津","currentmoney":1018873,"district":"宁河县","initmoney":0,"latitude":40.08521356,"longitude":118.5646615,"name":"equipment22","no":"03M03055180000000","type":2,"voltageLevel":10,"warehouseNo":"BKCA"},{"city":"天津","currentmoney":634851,"district":"宁河县","initmoney":0,"latitude":39.61796383,"longitude":118.0974117,"name":"equipment8","no":"03M30000000070652","type":2,"voltageLevel":10,"warehouseNo":"BKCA"},{"city":"天津","currentmoney":2506708,"district":"宁河县","initmoney":0,"latitude":39.48308358,"longitude":117.9625315,"name":"equipment4","no":"03M02000000000107","type":2,"voltageLevel":220,"warehouseNo":"BKCA"},{"city":"天津","currentmoney":110697,"district":"宁河县","initmoney":0,"latitude":40.21043154,"longitude":118.6898795,"name":"equipment28","no":"03M02000000001043","type":2,"voltageLevel":35,"warehouseNo":"BKCA"},{"city":"天津","currentmoney":6502045,"district":"宁河县","initmoney":0,"latitude":40.25181205,"longitude":118.73126,"name":"equipment31","no":"03M02000000000230","type":2,"voltageLevel":110,"warehouseNo":"BKCA"},{"city":"天津","currentmoney":438622,"district":"宁河县","initmoney":0,"latitude":40.27682279,"longitude":118.7562707,"name":"equipment33","no":"03M02000000000372","type":2,"voltageLevel":35,"warehouseNo":"BKCA"},{"city":"天津","currentmoney":3323476,"district":"宁河县","initmoney":0,"latitude":40.20300675,"longitude":118.6824547,"name":"equipment32","no":"03M02000000000339","type":2,"voltageLevel":35,"warehouseNo":"BKCA"},{"city":"天津","currentmoney":832303,"district":"宁河县","initmoney":0,"latitude":39.83347052,"longitude":118.3129184,"name":"equipment18","no":"03M02000000001322","type":2,"voltageLevel":35,"warehouseNo":"BKCA"},{"city":"天津","currentmoney":2114213,"district":"宁河县","initmoney":0,"latitude":40.20723744,"longitude":118.6866854,"name":"equipment33","no":"03M02000000421934","type":2,"voltageLevel":35,"warehouseNo":"BKCA"},{"city":"天津","currentmoney":816466,"district":"宁河县","initmoney":0,"latitude":40.18468078,"longitude":118.6641287,"name":"equipment33","no":"03M02000000001485","type":2,"voltageLevel":35,"warehouseNo":"BKCA"},{"city":"天津","currentmoney":1389200,"district":"宁河县","initmoney":0,"latitude":39.95059667,"longitude":118.4300446,"name":"equipment25","no":"03M02000000000894","type":2,"voltageLevel":110,"warehouseNo":"BKCA"},{"city":"天津","currentmoney":4535632,"district":"宁河县","initmoney":0,"latitude":40.03634574,"longitude":118.5157937,"name":"equipment29","no":"03M02000000000549","type":2,"voltageLevel":110,"warehouseNo":"BKCA"},{"city":"天津","currentmoney":2494561,"district":"宁河县","initmoney":0,"latitude":40.28709545,"longitude":118.7665434,"name":"equipment41","no":"03M02000000000635","type":2,"voltageLevel":35,"warehouseNo":"BKCA"},{"city":"天津","currentmoney":1211644,"district":"宁河县","initmoney":0,"latitude":39.97534512,"longitude":118.454793,"name":"equipment28","no":"03M30000000194460","type":2,"voltageLevel":10,"warehouseNo":"BKCA"},{"city":"天津","currentmoney":2200439,"district":"宁河县","initmoney":0,"latitude":39.66434437,"longitude":118.1437923,"name":"equipment14","no":"03M02000000000669","type":2,"voltageLevel":35,"warehouseNo":"BKCA"},{"city":"天津","currentmoney":0,"district":"宁河县","initmoney":0,"latitude":40.04459158,"longitude":118.5240395,"name":"equipment33","no":"03M02000000000263","type":2,"voltageLevel":110,"warehouseNo":"BKCA"},{"city":"天津","currentmoney":5239810,"district":"宁河县","initmoney":0,"latitude":39.87882993,"longitude":118.3582778,"name":"equipment25","no":"03M02000000001396","type":2,"voltageLevel":35,"warehouseNo":"BKCA"},{"city":"天津","currentmoney":0,"district":"宁河县","initmoney":0,"latitude":39.90928003,"longitude":118.3887279,"name":"equipment27","no":"03M02000000000881","type":2,"voltageLevel":110,"warehouseNo":"BKCA"},{"city":"天津","currentmoney":6447645,"district":"宁河县","initmoney":0,"latitude":39.55881547,"longitude":118.0382634,"name":"equipment10","no":"03M02000000001388","type":2,"voltageLevel":35,"warehouseNo":"BKCA"},{"city":"天津","currentmoney":1920569,"district":"宁河县","initmoney":0,"latitude":39.71514235,"longitude":118.1945903,"name":"equipment19","no":"03M02000000000389","type":2,"voltageLevel":35,"warehouseNo":"BKCA"},{"city":"天津","currentmoney":400646,"district":"宁河县","initmoney":0,"latitude":39.54817048,"longitude":118.0276184,"name":"equipment10","no":"03M02000000000968","type":2,"voltageLevel":35,"warehouseNo":"BKCA"},{"city":"天津","currentmoney":3151013,"district":"宁河县","initmoney":0,"latitude":40.24433047,"longitude":118.7237784,"name":"equipment47","no":"03M02000000000893","type":2,"voltageLevel":110,"warehouseNo":"BKCA"},{"city":"天津","currentmoney":6021550,"district":"宁河县","initmoney":0,"latitude":40.226046,"longitude":118.7054939,"name":"equipment47","no":"03M02000000000930","type":2,"voltageLevel":35,"warehouseNo":"BKCA"},{"city":"天津","currentmoney":21393486,"district":"宁河县","initmoney":0,"latitude":40.20148563,"longitude":118.6809335,"name":"equipment48","no":"03M02000000000548","type":2,"voltageLevel":110,"warehouseNo":"BKCA"},{"city":"天津","currentmoney":350153,"district":"宁河县","initmoney":0,"latitude":39.51790216,"longitude":117.9973501,"name":"equipment10","no":"03M02000000000929","type":2,"voltageLevel":35,"warehouseNo":"BKCA"},{"city":"天津","currentmoney":586055,"district":"宁河县","initmoney":0,"latitude":39.63395901,"longitude":118.1134069,"name":"equipment16","no":"03M02000000000954","type":2,"voltageLevel":35,"warehouseNo":"BKCA"},{"city":"天津","currentmoney":966162,"district":"宁河县","initmoney":0,"latitude":40.26499369,"longitude":118.7444416,"name":"equipment54","no":"03M02000000001038","type":2,"voltageLevel":35,"warehouseNo":"BKCA"},{"city":"天津","currentmoney":852576,"district":"宁河县","initmoney":0,"latitude":40.07199655,"longitude":118.5514445,"name":"equipment43","no":"03M03070660000000","type":2,"voltageLevel":10,"warehouseNo":"BKCA"},{"city":"天津","currentmoney":775135,"district":"宁河县","initmoney":0,"latitude":40.21390678,"longitude":118.6933547,"name":"equipment53","no":"03M03055170000000","type":2,"voltageLevel":10,"warehouseNo":"BKCA"},{"city":"天津","currentmoney":3628651,"district":"宁河县","initmoney":0,"latitude":39.50244937,"longitude":117.9818973,"name":"equipment9","no":"03M03053710000000","type":2,"voltageLevel":10,"warehouseNo":"BKCA"},{"city":"天津","currentmoney":368156,"district":"宁河县","initmoney":0,"latitude":39.78418593,"longitude":118.2636338,"name":"equipment28","no":"03M03055250000000","type":2,"voltageLevel":10,"warehouseNo":"BKCA"},{"city":"天津","currentmoney":2158739,"district":"宁河县","initmoney":0,"latitude":39.35368933,"longitude":117.8331372,"name":"equipment0","no":"03M30000000193753","type":2,"voltageLevel":10,"warehouseNo":"BKCA"},{"city":"天津","currentmoney":0,"district":"宁河县","initmoney":0,"latitude":40.06479396,"longitude":118.5442419,"name":"equipment48","no":"03M40000005357139","type":2,"voltageLevel":10,"warehouseNo":"BKCA"},{"city":"天津","currentmoney":3124,"district":"宁河县","initmoney":0,"latitude":40.01355786,"longitude":118.4930058,"name":"equipment46","no":"03M03053460000000","type":2,"voltageLevel":10,"warehouseNo":"BKCA"},{"city":"天津","currentmoney":3011188,"district":"宁河县","initmoney":0,"latitude":39.98127362,"longitude":118.4607215,"name":"equipment44","no":"03M03054320000000","type":2,"voltageLevel":10,"warehouseNo":"BKCA"},{"city":"天津","currentmoney":0,"district":"宁河县","initmoney":0,"latitude":39.51459966,"longitude":117.9940476,"name":"equipment12","no":"03M30000000070531","type":2,"voltageLevel":10,"warehouseNo":"BKCA"},{"city":"天津","currentmoney":1971296,"district":"宁河县","initmoney":0,"latitude":40.27808252,"longitude":118.7575304,"name":"equipment67","no":"03M02000000000912","type":2,"voltageLevel":35,"warehouseNo":"BKCA"},{"city":"天津","currentmoney":0,"district":"宁河县","initmoney":0,"latitude":39.49551876,"longitude":117.9749667,"name":"equipment11","no":"03M03055310000000","type":2,"voltageLevel":10,"warehouseNo":"BKCA"},{"city":"天津","currentmoney":2101093,"district":"宁河县","initmoney":0,"latitude":40.29225132,"longitude":118.7716992,"name":"equipment70","no":"03M02000000000397","type":2,"voltageLevel":35,"warehouseNo":"BKCA"},{"administration":"物资部门","assetType":"集体","city":"天津","createDate":{"date":1,"day":3,"hours":0,"minutes":0,"month":4,"seconds":0,"time":1367337600000,"timezoneOffset":-480,"year":113},"district":"10","equipmentRequirement":1880000,"fieldArea":5150,"id":1,"latitude":39.184650111646,"longitude":117.35769376786,"name":"国网天津电力东丽中心库","no":"BAAA","owner":"天津滨海汇能置业有限公司","projectRequirement":2000000,"shadowArea":0,"square":30000,"totalArea":14982.5,"type":3,"warehouseArea":8756.5,"warehouseLevel":"中心库"},{"administration":"营销部门（计量中心）","assetType":"集体","city":"天津","createDate":{"date":1,"day":5,"hours":0,"minutes":0,"month":4,"seconds":0,"time":1241107200000,"timezoneOffset":-480,"year":109},"district":"3","equipmentRequirement":1110000,"fieldArea":0,"id":2,"latitude":39.078685771774,"longitude":117.26375230136,"name":"国网天津电能计量中心郁江道仓储点","no":"BCDB","owner":"天津市三源房地产建设开发有限公司","projectRequirement":1500000,"shadowArea":0,"square":989,"totalArea":989,"type":3,"warehouseArea":989,"warehouseLevel":"省专业仓储点"},{"administration":"物资部门","assetType":"集体","city":"天津","createDate":{"date":1,"day":4,"hours":0,"minutes":0,"month":0,"seconds":0,"time":883584000000,"timezoneOffset":-480,"year":98},"district":"7","equipmentRequirement":1760000,"fieldArea":1850,"id":3,"latitude":39.077008863324,"longitude":117.65410310611,"name":"国网天津电力滨海仓库","no":"BGCA","owner":"滨电电力物资销售有限公司","projectRequirement":1800000,"shadowArea":0,"square":5500,"totalArea":5052,"type":3,"warehouseArea":1482,"warehouseLevel":"周转库"},{"administration":"物资部门","assetType":"全民","city":"天津","createDate":{"date":4,"day":0,"hours":0,"minutes":0,"month":0,"seconds":0,"time":883843200000,"timezoneOffset":-480,"year":98},"district":"18","equipmentRequirement":1950000,"fieldArea":700,"id":4,"latitude":39.261145797357,"longitude":117.24337289341,"name":"国网天津电力蓟县仓库","no":"BHCA","owner":"国网天津市电力公司物资公司","projectRequirement":2200000,"shadowArea":0,"square":1600,"totalArea":1464.2,"type":3,"warehouseArea":595.2,"warehouseLevel":"周转库"},{"administration":"物资部门","assetType":"全民","city":"天津","createDate":{"date":1,"day":3,"hours":0,"minutes":0,"month":11,"seconds":0,"time":1291132800000,"timezoneOffset":-480,"year":110},"district":"14","equipmentRequirement":900000,"fieldArea":3500,"id":5,"latitude":39.404393732879,"longitude":117.06304111652,"name":"国网天津电力武清仓库","no":"BJCA","owner":"国网天津武清供电有限公司","projectRequirement":1100000,"shadowArea":200,"square":8360,"totalArea":5500,"type":3,"warehouseArea":800,"warehouseLevel":"周转库"},{"administration":"物资部门","assetType":"全民","city":"天津","createDate":{"date":1,"day":3,"hours":0,"minutes":0,"month":5,"seconds":0,"time":233942400000,"timezoneOffset":-480,"year":77},"district":"15","equipmentRequirement":1200000,"fieldArea":650,"id":6,"latitude":39.729762550786,"longitude":117.30518987691,"name":"国网天津电力宝坻仓库","no":"BLCA","owner":"国网天津宝坻供电有限公司","projectRequirement":2800000,"shadowArea":850,"square":2820,"totalArea":2820,"type":3,"warehouseArea":611,"warehouseLevel":"周转库"},{"administration":"物资部门","assetType":"全民","city":"天津","createDate":{"date":1,"day":2,"hours":0,"minutes":0,"month":7,"seconds":0,"time":1154361600000,"timezoneOffset":-480,"year":106},"district":"16","equipmentRequirement":2100000,"fieldArea":3210,"id":7,"latitude":39.351094918584,"longitude":117.83054283407,"name":"国网天津电力宁河仓库","no":"BKCA","owner":"国网天津宁河供电有限公司","projectRequirement":1350000,"shadowArea":150,"square":8486,"totalArea":5413,"type":3,"warehouseArea":1553,"warehouseLevel":"周转库"},{"administration":"物资部门","assetType":"集体","city":"天津","createDate":{"date":1,"day":6,"hours":0,"minutes":0,"month":10,"seconds":0,"time":1225468800000,"timezoneOffset":-480,"year":108},"district":"17","equipmentRequirement":1760000,"fieldArea":2221,"id":8,"latitude":38.964280528452,"longitude":116.96306411495,"name":"国网天津电力静海仓库","no":"BICA","owner":"天津市静海县安慧电力安装有限公司","projectRequirement":2280000,"shadowArea":0,"square":6500,"totalArea":5736,"type":3,"warehouseArea":2815,"warehouseLevel":"周转库"},{"administration":"物资部门","assetType":"全民","city":"天津","createDate":{"date":1,"day":3,"hours":0,"minutes":0,"month":11,"seconds":0,"time":1291132800000,"timezoneOffset":-480,"year":110},"district":"10","equipmentRequirement":1.0E7,"fieldArea":2000,"id":10,"latitude":0,"longitude":0,"name":"ALL","no":"ALL","owner":"天津","projectRequirement":1.0E7,"shadowArea":1500,"square":0,"totalArea":28000,"type":3,"warehouseArea":2000,"warehouseLevel":"中心库"}]



