[{"city":"天津","currentmoney":17042842,"district":"河东区","initmoney":0,"latitude":39.76134018185129,"longitude":117.45770580770237,"name":"输电物理杆：1 ","no":"03M02000000000193","type":2,"voltageLevel":220,"warehouseNo":"BAAA"},{"city":"天津","currentmoney":17042842,"district":"河东区","initmoney":0,"latitude":38.86261,"longitude":117.2895233,"name":"输电物理杆：1 ","no":"03M02000000000193","type":2,"voltageLevel":220,"warehouseNo":"BAAA"},{"city":"天津","currentmoney":706944,"district":"西青区","initmoney":0,"latitude":39.94283215125131,"longitude":117.5665574399724,"name":"(滨海-电网09-44)110kV临港线路改造","no":"03M02000000000198","type":2,"voltageLevel":35,"warehouseNo":"BAAA"},{"city":"天津","currentmoney":706944,"district":"西青区","initmoney":0,"latitude":39.0505868,"longitude":117.25109,"name":"配电物理杆：双4100009","no":"03M02100000000073","type":2,"voltageLevel":35,"warehouseNo":"BAAA"},{"city":"天津","currentmoney":0,"district":"大港区","initmoney":0,"latitude":39.07835,"longitude":117.2463315,"name":"变电站：洞庭路开闭站DS35-24","no":"03M02000000000786","type":2,"voltageLevel":35,"warehouseNo":"BGCA"},{"city":"天津","currentmoney":808648,"district":"宁河县","initmoney":0,"latitude":39.56305375,"longitude":118.0425017,"name":"equipment0","no":"03M02000000000228","type":2,"voltageLevel":110,"warehouseNo":"BKCA"},{"city":"天津","currentmoney":171806,"district":"宁河县","initmoney":0,"latitude":39.4684223,"longitude":117.9478702,"name":"equipment0","no":"03M02000000000631","type":2,"voltageLevel":35,"warehouseNo":"BKCA"},{"city":"天津","currentmoney":1275474,"district":"宁河县","initmoney":0,"latitude":40.30185536,"longitude":118.7813033,"name":"equipment2","no":"03M02000000001549","type":2,"voltageLevel":110,"warehouseNo":"BKCA"},{"city":"天津","currentmoney":862627,"district":"宁河县","initmoney":0,"latitude":39.75291501,"longitude":118.2323629,"name":"equipment1","no":"03M03054440000000","type":2,"voltageLevel":10,"warehouseNo":"BKCA"},{"city":"天津","currentmoney":1752877,"district":"宁河县","initmoney":0,"latitude":39.50791407,"longitude":117.987362,"name":"equipment1","no":"03M03054870000000","type":2,"voltageLevel":10,"warehouseNo":"BKCA"},{"city":"天津","currentmoney":524153,"district":"宁河县","initmoney":0,"latitude":39.92973045,"longitude":118.4091784,"name":"equipment3","no":"03M03053410000000","type":2,"voltageLevel":10,"warehouseNo":"BKCA"},{"city":"天津","currentmoney":926332,"district":"宁河县","initmoney":0,"latitude":39.77381515,"longitude":118.2532631,"name":"equipment3","no":"03M03054530000000","type":2,"voltageLevel":10,"warehouseNo":"BKCA"},{"city":"天津","currentmoney":754410,"district":"宁河县","initmoney":0,"latitude":39.7287895,"longitude":118.2082374,"name":"equipment3","no":"03M03054550000000","type":2,"voltageLevel":10,"warehouseNo":"BKCA"},{"city":"天津","currentmoney":283777,"district":"宁河县","initmoney":0,"latitude":39.97140717,"longitude":118.4508551,"name":"equipment5","no":"03M03054190000000","type":2,"voltageLevel":10,"warehouseNo":"BKCA"},{"city":"天津","currentmoney":8134536,"district":"宁河县","initmoney":0,"latitude":40.31957248,"longitude":118.7990204,"name":"equipment9","no":"03M02000000001306","type":2,"voltageLevel":110,"warehouseNo":"BKCA"},{"city":"天津","currentmoney":536415,"district":"宁河县","initmoney":0,"latitude":40.332546,"longitude":118.8119939,"name":"equipment10","no":"03M30000000070677","type":2,"voltageLevel":10,"warehouseNo":"BKCA"},{"city":"天津","currentmoney":939,"district":"宁河县","initmoney":0,"latitude":39.35291766,"longitude":117.8323656,"name":"equipment0","no":"03M30000000070714","type":2,"voltageLevel":10,"warehouseNo":"BKCA"},{"city":"天津","currentmoney":1533781,"district":"宁河县","initmoney":0,"latitude":39.41585543,"longitude":117.8953033,"name":"equipment1","no":"03M40000003701272","type":2,"voltageLevel":10,"warehouseNo":"BKCA"},{"city":"天津","currentmoney":539301,"district":"宁河县","initmoney":0,"latitude":39.66942927,"longitude":118.1488772,"name":"equipment4","no":"03M02000000000384","type":2,"voltageLevel":35,"warehouseNo":"BKCA"},{"city":"天津","currentmoney":2074266,"district":"宁河县","initmoney":0,"latitude":39.74848515,"longitude":118.2279331,"name":"equipment6","no":"03M02000000000853","type":2,"voltageLevel":35,"warehouseNo":"BKCA"},{"city":"天津","currentmoney":168774,"district":"宁河县","initmoney":0,"latitude":39.38304309,"longitude":117.862491,"name":"equipment0","no":"03M03053400000000","type":2,"voltageLevel":10,"warehouseNo":"BKCA"},{"city":"天津","currentmoney":730485,"district":"宁河县","initmoney":0,"latitude":40.31866508,"longitude":118.798113,"name":"equipment15","no":"03M03364210000000","type":2,"voltageLevel":10,"warehouseNo":"BKCA"},{"city":"天津","currentmoney":0,"district":"宁河县","initmoney":0,"latitude":40.09310126,"longitude":118.5725492,"name":"equipment13","no":"03M03020071300000","type":2,"voltageLevel":10,"warehouseNo":"BKCA"},{"city":"天津","currentmoney":1343286,"district":"宁河县","initmoney":0,"latitude":39.98206764,"longitude":118.4615156,"name":"equipment13","no":"03M30000000070681","type":2,"voltageLevel":10,"warehouseNo":"BKCA"},{"city":"天津","currentmoney":736100,"district":"宁河县","initmoney":0,"latitude":40.07419668,"longitude":118.5536446,"name":"equipment15","no":"03M02000000000568","type":2,"voltageLevel":35,"warehouseNo":"BKCA"},{"city":"天津","currentmoney":774150,"district":"宁河县","initmoney":0,"latitude":40.07368557,"longitude":118.5531335,"name":"equipment16","no":"03M03055130000000","type":2,"voltageLevel":10,"warehouseNo":"BKCA"},{"city":"天津","currentmoney":195425,"district":"宁河县","initmoney":0,"latitude":39.79474294,"longitude":118.2741909,"name":"equipment10","no":"03M30000000193099","type":2,"voltageLevel":10,"warehouseNo":"BKCA"},{"city":"天津","currentmoney":2339724,"district":"宁河县","initmoney":0,"latitude":39.40156311,"longitude":117.881011,"name":"equipment1","no":"03M02000000000637","type":2,"voltageLevel":35,"warehouseNo":"BKCA"},{"city":"天津","currentmoney":53590,"district":"宁河县","initmoney":0,"latitude":40.27249184,"longitude":118.7519398,"name":"equipment23","no":"03M02000000000158","type":2,"voltageLevel":220,"warehouseNo":"BKCA"},{"city":"天津","currentmoney":642278,"district":"宁河县","initmoney":0,"latitude":39.80667496,"longitude":118.2861229,"name":"equipment12","no":"03M30000000070717","type":2,"voltageLevel":10,"warehouseNo":"BKCA"},{"city":"天津","currentmoney":1588447,"district":"宁河县","initmoney":0,"latitude":39.8648044,"longitude":118.3442523,"name":"equipment14","no":"03M03027130000000","type":2,"voltageLevel":10,"warehouseNo":"BKCA"},{"city":"天津","currentmoney":1019742,"district":"宁河县","initmoney":0,"latitude":39.55290222,"longitude":118.0323501,"name":"equipment6","no":"03M02000000001177","type":2,"voltageLevel":35,"warehouseNo":"BKCA"},{"city":"天津","currentmoney":737320,"district":"宁河县","initmoney":0,"latitude":39.81900302,"longitude":118.2984509,"name":"equipment14","no":"03M03352860000000","type":2,"voltageLevel":10,"warehouseNo":"BKCA"},{"city":"天津","currentmoney":1018873,"district":"宁河县","initmoney":0,"latitude":40.08521356,"longitude":118.5646615,"name":"equipment22","no":"03M03055180000000","type":2,"voltageLevel":10,"warehouseNo":"BKCA"},{"city":"天津","currentmoney":634851,"district":"宁河县","initmoney":0,"latitude":39.61796383,"longitude":118.0974117,"name":"equipment8","no":"03M30000000070652","type":2,"voltageLevel":10,"warehouseNo":"BKCA"},{"city":"天津","currentmoney":2506708,"district":"宁河县","initmoney":0,"latitude":39.48308358,"longitude":117.9625315,"name":"equipment4","no":"03M02000000000107","type":2,"voltageLevel":220,"warehouseNo":"BKCA"},{"city":"天津","currentmoney":110697,"district":"宁河县","initmoney":0,"latitude":40.21043154,"longitude":118.6898795,"name":"equipment28","no":"03M02000000001043","type":2,"voltageLevel":35,"warehouseNo":"BKCA"},{"city":"天津","currentmoney":6502045,"district":"宁河县","initmoney":0,"latitude":40.25181205,"longitude":118.73126,"name":"equipment31","no":"03M02000000000230","type":2,"voltageLevel":110,"warehouseNo":"BKCA"},{"city":"天津","currentmoney":438622,"district":"宁河县","initmoney":0,"latitude":40.27682279,"longitude":118.7562707,"name":"equipment33","no":"03M02000000000372","type":2,"voltageLevel":35,"warehouseNo":"BKCA"},{"city":"天津","currentmoney":3323476,"district":"宁河县","initmoney":0,"latitude":40.20300675,"longitude":118.6824547,"name":"equipment32","no":"03M02000000000339","type":2,"voltageLevel":35,"warehouseNo":"BKCA"},{"city":"天津","currentmoney":832303,"district":"宁河县","initmoney":0,"latitude":39.83347052,"longitude":118.3129184,"name":"equipment18","no":"03M02000000001322","type":2,"voltageLevel":35,"warehouseNo":"BKCA"},{"city":"天津","currentmoney":2114213,"district":"宁河县","initmoney":0,"latitude":40.20723744,"longitude":118.6866854,"name":"equipment33","no":"03M02000000421934","type":2,"voltageLevel":35,"warehouseNo":"BKCA"},{"city":"天津","currentmoney":816466,"district":"宁河县","initmoney":0,"latitude":40.18468078,"longitude":118.6641287,"name":"equipment33","no":"03M02000000001485","type":2,"voltageLevel":35,"warehouseNo":"BKCA"},{"city":"天津","currentmoney":1389200,"district":"宁河县","initmoney":0,"latitude":39.95059667,"longitude":118.4300446,"name":"equipment25","no":"03M02000000000894","type":2,"voltageLevel":110,"warehouseNo":"BKCA"},{"city":"天津","currentmoney":4535632,"district":"宁河县","initmoney":0,"latitude":40.03634574,"longitude":118.5157937,"name":"equipment29","no":"03M02000000000549","type":2,"voltageLevel":110,"warehouseNo":"BKCA"},{"city":"天津","currentmoney":2494561,"district":"宁河县","initmoney":0,"latitude":40.28709545,"longitude":118.7665434,"name":"equipment41","no":"03M02000000000635","type":2,"voltageLevel":35,"warehouseNo":"BKCA"},{"city":"天津","currentmoney":1211644,"district":"宁河县","initmoney":0,"latitude":39.97534512,"longitude":118.454793,"name":"equipment28","no":"03M30000000194460","type":2,"voltageLevel":10,"warehouseNo":"BKCA"},{"city":"天津","currentmoney":2200439,"district":"宁河县","initmoney":0,"latitude":39.66434437,"longitude":118.1437923,"name":"equipment14","no":"03M02000000000669","type":2,"voltageLevel":35,"warehouseNo":"BKCA"},{"city":"天津","currentmoney":0,"district":"宁河县","initmoney":0,"latitude":40.04459158,"longitude":118.5240395,"name":"equipment33","no":"03M02000000000263","type":2,"voltageLevel":110,"warehouseNo":"BKCA"},{"city":"天津","currentmoney":5239810,"district":"宁河县","initmoney":0,"latitude":39.87882993,"longitude":118.3582778,"name":"equipment25","no":"03M02000000001396","type":2,"voltageLevel":35,"warehouseNo":"BKCA"},{"city":"天津","currentmoney":0,"district":"宁河县","initmoney":0,"latitude":39.90928003,"longitude":118.3887279,"name":"equipment27","no":"03M02000000000881","type":2,"voltageLevel":110,"warehouseNo":"BKCA"},{"city":"天津","currentmoney":6447645,"district":"宁河县","initmoney":0,"latitude":39.55881547,"longitude":118.0382634,"name":"equipment10","no":"03M02000000001388","type":2,"voltageLevel":35,"warehouseNo":"BKCA"},{"city":"天津","currentmoney":1920569,"district":"宁河县","initmoney":0,"latitude":39.71514235,"longitude":118.1945903,"name":"equipment19","no":"03M02000000000389","type":2,"voltageLevel":35,"warehouseNo":"BKCA"},{"city":"天津","currentmoney":400646,"district":"宁河县","initmoney":0,"latitude":39.54817048,"longitude":118.0276184,"name":"equipment10","no":"03M02000000000968","type":2,"voltageLevel":35,"warehouseNo":"BKCA"},{"city":"天津","currentmoney":3151013,"district":"宁河县","initmoney":0,"latitude":40.24433047,"longitude":118.7237784,"name":"equipment47","no":"03M02000000000893","type":2,"voltageLevel":110,"warehouseNo":"BKCA"},{"city":"天津","currentmoney":6021550,"district":"宁河县","initmoney":0,"latitude":40.226046,"longitude":118.7054939,"name":"equipment47","no":"03M02000000000930","type":2,"voltageLevel":35,"warehouseNo":"BKCA"},{"city":"天津","currentmoney":21393486,"district":"宁河县","initmoney":0,"latitude":40.20148563,"longitude":118.6809335,"name":"equipment48","no":"03M02000000000548","type":2,"voltageLevel":110,"warehouseNo":"BKCA"},{"city":"天津","currentmoney":350153,"district":"宁河县","initmoney":0,"latitude":39.51790216,"longitude":117.9973501,"name":"equipment10","no":"03M02000000000929","type":2,"voltageLevel":35,"warehouseNo":"BKCA"},{"city":"天津","currentmoney":586055,"district":"宁河县","initmoney":0,"latitude":39.63395901,"longitude":118.1134069,"name":"equipment16","no":"03M02000000000954","type":2,"voltageLevel":35,"warehouseNo":"BKCA"},{"city":"天津","currentmoney":966162,"district":"宁河县","initmoney":0,"latitude":40.26499369,"longitude":118.7444416,"name":"equipment54","no":"03M02000000001038","type":2,"voltageLevel":35,"warehouseNo":"BKCA"},{"city":"天津","currentmoney":852576,"district":"宁河县","initmoney":0,"latitude":40.07199655,"longitude":118.5514445,"name":"equipment43","no":"03M03070660000000","type":2,"voltageLevel":10,"warehouseNo":"BKCA"},{"city":"天津","currentmoney":775135,"district":"宁河县","initmoney":0,"latitude":40.21390678,"longitude":118.6933547,"name":"equipment53","no":"03M03055170000000","type":2,"voltageLevel":10,"warehouseNo":"BKCA"},{"city":"天津","currentmoney":3628651,"district":"宁河县","initmoney":0,"latitude":39.50244937,"longitude":117.9818973,"name":"equipment9","no":"03M03053710000000","type":2,"voltageLevel":10,"warehouseNo":"BKCA"},{"city":"天津","currentmoney":368156,"district":"宁河县","initmoney":0,"latitude":39.78418593,"longitude":118.2636338,"name":"equipment28","no":"03M03055250000000","type":2,"voltageLevel":10,"warehouseNo":"BKCA"},{"city":"天津","currentmoney":2158739,"district":"宁河县","initmoney":0,"latitude":39.35368933,"longitude":117.8331372,"name":"equipment0","no":"03M30000000193753","type":2,"voltageLevel":10,"warehouseNo":"BKCA"},{"city":"天津","currentmoney":0,"district":"宁河县","initmoney":0,"latitude":40.06479396,"longitude":118.5442419,"name":"equipment48","no":"03M40000005357139","type":2,"voltageLevel":10,"warehouseNo":"BKCA"},{"city":"天津","currentmoney":3124,"district":"宁河县","initmoney":0,"latitude":40.01355786,"longitude":118.4930058,"name":"equipment46","no":"03M03053460000000","type":2,"voltageLevel":10,"warehouseNo":"BKCA"},{"city":"天津","currentmoney":3011188,"district":"宁河县","initmoney":0,"latitude":39.98127362,"longitude":118.4607215,"name":"equipment44","no":"03M03054320000000","type":2,"voltageLevel":10,"warehouseNo":"BKCA"},{"city":"天津","currentmoney":0,"district":"宁河县","initmoney":0,"latitude":39.51459966,"longitude":117.9940476,"name":"equipment12","no":"03M30000000070531","type":2,"voltageLevel":10,"warehouseNo":"BKCA"},{"city":"天津","currentmoney":1971296,"district":"宁河县","initmoney":0,"latitude":40.27808252,"longitude":118.7575304,"name":"equipment67","no":"03M02000000000912","type":2,"voltageLevel":35,"warehouseNo":"BKCA"},{"city":"天津","currentmoney":0,"district":"宁河县","initmoney":0,"latitude":39.49551876,"longitude":117.9749667,"name":"equipment11","no":"03M03055310000000","type":2,"voltageLevel":10,"warehouseNo":"BKCA"},{"city":"天津","currentmoney":2101093,"district":"宁河县","initmoney":0,"latitude":40.29225132,"longitude":118.7716992,"name":"equipment70","no":"03M02000000000397","type":2,"voltageLevel":35,"warehouseNo":"BKCA"}]



